identificador,titulo,accesible,url,direccion,BARRIO,lat,lng,tipo
167133,Bosque del Recuerdo,0,http://www.madrid.es/vgn-ext-templating/v/index.jsp?vgnextchannel=9e4c43db40317010VgnVCM100000dc0ca8c0RCRD&vgnextoid=4b6aae7cb2e4f010VgnVCM1000000b205a0aRCRD,"CALLE ALFONSO XII, 48",LOS JERONIMOS,40.412408966986206,-3.689050463043604,Parques Jardines
6070995,Jardines Gregorio Ordóñez,0,http://www.madrid.es/vgn-ext-templating/v/index.jsp?vgnextchannel=9e4c43db40317010VgnVCM100000dc0ca8c0RCRD&vgnextoid=2fba3c8f758ff210VgnVCM2000000c205a0aRCRD,"CALLE PRINCIPE DE VERGARA, 68",LISTA,40.43346186779773,-3.6785954778654113,Parques Jardines
5964519,"Jardines calles Raimundo Fernández Villaverde, Ponzano y Maudes",0,http://www.madrid.es/vgn-ext-templating/v/index.jsp?vgnextchannel=9e4c43db40317010VgnVCM100000dc0ca8c0RCRD&vgnextoid=a1c51eadb333e210VgnVCM2000000c205a0aRCRD,"CALLE RAIMUNDO FERNANDEZ VILLAVERDE, 32",RIOS ROSAS,40.44613326792272,-3.6989699295578347,Parques Jardines
10090688,Jardines de Pablo Sorozábal,0,http://www.madrid.es/vgn-ext-templating/v/index.jsp?vgnextchannel=9e4c43db40317010VgnVCM100000dc0ca8c0RCRD&vgnextoid=b53d8464dad45510VgnVCM1000001d4a900aRCRD,"CALLE PRINCIPE DE VERGARA, 139",EL VISO,40.444623864292,-3.678625177573984,Parques Jardines
5965620,Jardines de Perón,0,http://www.madrid.es/vgn-ext-templating/v/index.jsp?vgnextchannel=9e4c43db40317010VgnVCM100000dc0ca8c0RCRD&vgnextoid=73f370530083e210VgnVCM1000000b205a0aRCRD,"AVENIDA GENERAL PERON, 21",CUATRO CAMINOS,40.45257591499544,-3.6957817548357257,Parques Jardines
6010175,Jardines de Sabatini,0,http://www.madrid.es/vgn-ext-templating/v/index.jsp?vgnextchannel=9e4c43db40317010VgnVCM100000dc0ca8c0RCRD&vgnextoid=20baf389ed2ee210VgnVCM1000000b205a0aRCRD,"CALLE BAILEN, 2",PALACIO,40.419911287101144,-3.713185308888602,Parques Jardines
5965246,Jardines de San Fernando,0,http://www.madrid.es/vgn-ext-templating/v/index.jsp?vgnextchannel=9e4c43db40317010VgnVCM100000dc0ca8c0RCRD&vgnextoid=9e6e121dcd33e210VgnVCM1000000b205a0aRCRD,"AVENIDA ALBERTO ALCOCER, 9",NUEVA ESPAÑA,40.45978849094378,-3.687352342212426,Parques Jardines
5965967,Jardines de la Basílica,0,http://www.madrid.es/vgn-ext-templating/v/index.jsp?vgnextchannel=9e4c43db40317010VgnVCM100000dc0ca8c0RCRD&vgnextoid=58df433bf683e210VgnVCM1000000b205a0aRCRD,"CALLE BASILICA, 15",CUATRO CAMINOS,40.44903638127448,-3.695615530710886,Parques Jardines
5965719,Jardines de la Organización Mundial del Turismo,0,http://www.madrid.es/vgn-ext-templating/v/index.jsp?vgnextchannel=9e4c43db40317010VgnVCM100000dc0ca8c0RCRD&vgnextoid=d398680e2383e210VgnVCM1000000b205a0aRCRD,"AVENIDA BRASIL, 31",CASTILLEJOS,40.458706953002235,-3.6934625569379387,Parques Jardines
5964911,Jardines de la Plaza Conde del Valle de Suchil,0,http://www.madrid.es/vgn-ext-templating/v/index.jsp?vgnextchannel=9e4c43db40317010VgnVCM100000dc0ca8c0RCRD&vgnextoid=7c3042197833e210VgnVCM2000000c205a0aRCRD,"CALLE RODRIGUEZ SAN PEDRO, 3, B",ARAPILES,40.43137597367309,-3.7064685006782208,Parques Jardines
5963489,Jardines de la Plaza de Chamberí,0,http://www.madrid.es/vgn-ext-templating/v/index.jsp?vgnextchannel=9e4c43db40317010VgnVCM100000dc0ca8c0RCRD&vgnextoid=d3d6ee4002e2e210VgnVCM2000000c205a0aRCRD,"PLAZA CHAMBERI, 1",ALMAGRO,40.43285328749453,-3.697594475998512,Parques Jardines
5963151,Jardines de la Plaza de Olavide,0,http://www.madrid.es/vgn-ext-templating/v/index.jsp?vgnextchannel=9e4c43db40317010VgnVCM100000dc0ca8c0RCRD&vgnextoid=091b882aacd2e210VgnVCM2000000c205a0aRCRD,"PLAZA OLAVIDE, 16",TRAFALGAR,40.43247362678542,-3.7007855621824293,Parques Jardines
6010975,"Jardines de la Plaza de Oriente, Lepanto y Cabo Noval",0,http://www.madrid.es/vgn-ext-templating/v/index.jsp?vgnextchannel=9e4c43db40317010VgnVCM100000dc0ca8c0RCRD&vgnextoid=5089e51ecd6ee210VgnVCM2000000c205a0aRCRD,"CALLE BAILEN, 17",PALACIO,40.41835486065351,-3.712838830603048,Parques Jardines
6067949,Jardines de la Plaza de la Villa de París,0,http://www.madrid.es/vgn-ext-templating/v/index.jsp?vgnextchannel=9e4c43db40317010VgnVCM100000dc0ca8c0RCRD&vgnextoid=1e069432ff3ef210VgnVCM2000000c205a0aRCRD,"CALLE GENERAL CASTAÑOS, 6",JUSTICIA,40.42620255233654,-3.6934468983675846,Parques Jardines
5990847,Jardines de la calle Teresita González Quevedo,0,http://www.madrid.es/vgn-ext-templating/v/index.jsp?vgnextchannel=9e4c43db40317010VgnVCM100000dc0ca8c0RCRD&vgnextoid=5a4e4eff905ae210VgnVCM2000000c205a0aRCRD,"PLAZA SAN AMARO, 4",CUATRO CAMINOS,40.45558642017734,-3.6970275649098454,Parques Jardines
6011090,Jardines de las Vistillas,0,http://www.madrid.es/vgn-ext-templating/v/index.jsp?vgnextchannel=9e4c43db40317010VgnVCM100000dc0ca8c0RCRD&vgnextoid=ff7261226f6ee210VgnVCM1000000b205a0aRCRD,"CALLE MORERIA, 12",PALACIO,40.41281392212301,-3.7143597156687056,Parques Jardines
6011574,Jardines del Arquitecto Ribera,0,http://www.madrid.es/vgn-ext-templating/v/index.jsp?vgnextchannel=9e4c43db40317010VgnVCM100000dc0ca8c0RCRD&vgnextoid=7c696da6957ee210VgnVCM1000000b205a0aRCRD,"CALLE BARCELO, 2",JUSTICIA,40.42640449792336,-3.7002981748621955,Parques Jardines
94391,Jardines del Campo del Moro,0,http://www.madrid.es/vgn-ext-templating/v/index.jsp?vgnextchannel=9e4c43db40317010VgnVCM100000dc0ca8c0RCRD&vgnextoid=bb3a34c0e2c5f010VgnVCM2000000c205a0aRCRD,"PASEO VIRGEN DEL PUERTO, 0",PALACIO,40.41898630733354,-3.719976836914711,Monumentos Edificios Artisticos
6010463,Jardines del Descubrimiento,0,http://www.madrid.es/vgn-ext-templating/v/index.jsp?vgnextchannel=9e4c43db40317010VgnVCM100000dc0ca8c0RCRD&vgnextoid=185afce3b03ee210VgnVCM2000000c205a0aRCRD,"CALLE GOYA, 2",RECOLETOS,40.42518540300912,-3.6887800207651495,Parques Jardines
6076087,Jardines del Doctor Fleming,0,http://www.madrid.es/vgn-ext-templating/v/index.jsp?vgnextchannel=9e4c43db40317010VgnVCM100000dc0ca8c0RCRD&vgnextoid=b8a6a4e95e700310VgnVCM2000000c205a0aRCRD,"CALLE DOCTOR FLEMING, 1",HISPANOAMERICA,40.45454215758879,-3.6893863385035783,Parques Jardines
5965543,Jardines del Mundial. Castellana,0,http://www.madrid.es/vgn-ext-templating/v/index.jsp?vgnextchannel=9e4c43db40317010VgnVCM100000dc0ca8c0RCRD&vgnextoid=f87202f3ad73e210VgnVCM2000000c205a0aRCRD,"PASEO CASTELLANA, 142, B",HISPANOAMERICA,40.4530917282714,-3.6893833082867062,Parques Jardines
6011769,Jardines del Príncipe de Anglona,0,http://www.madrid.es/vgn-ext-templating/v/index.jsp?vgnextchannel=9e4c43db40317010VgnVCM100000dc0ca8c0RCRD&vgnextoid=8019ed1da87ee210VgnVCM1000000b205a0aRCRD,"PLAZA PAJA, 6",PALACIO,40.413417349090764,-3.711466649831885,Parques Jardines
5962990,Jardín Concejal Alejandro Muñoz Revenga,0,http://www.madrid.es/vgn-ext-templating/v/index.jsp?vgnextchannel=9e4c43db40317010VgnVCM100000dc0ca8c0RCRD&vgnextoid=724bdcbc2ad2e210VgnVCM2000000c205a0aRCRD,"CALLE MELENDEZ VALDES, 32",GAZTAMBIDE,40.43304334055123,-3.712227582685096,Parques Jardines
5981388,Jardín Dionisio Ridruejo,0,http://www.madrid.es/vgn-ext-templating/v/index.jsp?vgnextchannel=9e4c43db40317010VgnVCM100000dc0ca8c0RCRD&vgnextoid=6e84c2164ea7e210VgnVCM2000000c205a0aRCRD,"CALLE MOLINA DE SEGURA, 4",MARROQUINA,40.40748540000109,-3.638052155862275,Parques Jardines
5964859,Jardín Doña Concha Piquer,0,http://www.madrid.es/vgn-ext-templating/v/index.jsp?vgnextchannel=9e4c43db40317010VgnVCM100000dc0ca8c0RCRD&vgnextoid=3181025c5733e210VgnVCM1000000b205a0aRCRD,"PASEO IMPERIAL, 93",IMPERIAL,40.402080397498985,-3.714965086287463,Parques Jardines
5964601,Jardín Fachada Pirámides I,0,http://www.madrid.es/vgn-ext-templating/v/index.jsp?vgnextchannel=9e4c43db40317010VgnVCM100000dc0ca8c0RCRD&vgnextoid=f5e35c528233e210VgnVCM2000000c205a0aRCRD,"PASEO ACACIAS, 60",ACACIAS,40.40148810908036,-3.713132255123738,Parques Jardines
6011700,Jardín Glorieta de Azorín,0,http://www.madrid.es/vgn-ext-templating/v/index.jsp?vgnextchannel=9e4c43db40317010VgnVCM100000dc0ca8c0RCRD&vgnextoid=47a40166e57ee210VgnVCM2000000c205a0aRCRD,"CUESTA VEGA, 3",PALACIO,40.414757673901924,-3.7161718357850444,Parques Jardines
5994445,Jardín Jazmín. Parque de la Cornisa,0,http://www.madrid.es/vgn-ext-templating/v/index.jsp?vgnextchannel=9e4c43db40317010VgnVCM100000dc0ca8c0RCRD&vgnextoid=cae5e8d9af8be210VgnVCM1000000b205a0aRCRD,"CALLE ROQUETAS DE MAR, 10",APOSTOL SANTIAGO,40.481785094079584,-3.660098332215654,Parques Jardines
6010978,Jardín Palacio O'Reilly,0,http://www.madrid.es/vgn-ext-templating/v/index.jsp?vgnextchannel=9e4c43db40317010VgnVCM100000dc0ca8c0RCRD&vgnextoid=28dec79b4a5ee210VgnVCM1000000b205a0aRCRD,"PLAZA CRUZ VERDE, 2",PALACIO,40.41418990040181,-3.7118283820550775,Parques Jardines
5963709,Jardín de Embajadores M-30 (Madroños),0,http://www.madrid.es/vgn-ext-templating/v/index.jsp?vgnextchannel=9e4c43db40317010VgnVCM100000dc0ca8c0RCRD&vgnextoid=4edc357e87e2e210VgnVCM2000000c205a0aRCRD,"CALLE PUERTO DE LA CRUZ VERDE, 29",LEGAZPI,40.38418473435094,-3.685817452497564,Parques Jardines
6011067,Jardín de Larra,0,http://www.madrid.es/vgn-ext-templating/v/index.jsp?vgnextchannel=9e4c43db40317010VgnVCM100000dc0ca8c0RCRD&vgnextoid=04de61226f6ee210VgnVCM1000000b205a0aRCRD,"CALLE FACTOR, 7",PALACIO,40.41631909566782,-3.712793771176405,Parques Jardines
5996843,Jardín de la Colonia Congosto,0,http://www.madrid.es/vgn-ext-templating/v/index.jsp?vgnextchannel=9e4c43db40317010VgnVCM100000dc0ca8c0RCRD&vgnextoid=f8a5d9e4faebe210VgnVCM2000000c205a0aRCRD,"CALLE CONGOSTO, 70",CASCO H.VALLECAS,40.37089825532696,-3.618365854832584,Parques Jardines
5967788,Jardín de las Bellas Artes,0,http://www.madrid.es/vgn-ext-templating/v/index.jsp?vgnextchannel=9e4c43db40317010VgnVCM100000dc0ca8c0RCRD&vgnextoid=1777c5ab4774e210VgnVCM1000000b205a0aRCRD,"PASEO CASTELLANA, 78, B",EL VISO,40.4390037057741,-3.6905481652485355,Parques Jardines
5978923,Jardín del Bulevar de Peña Gorbea,0,http://www.madrid.es/vgn-ext-templating/v/index.jsp?vgnextchannel=9e4c43db40317010VgnVCM100000dc0ca8c0RCRD&vgnextoid=1aaf38317117e210VgnVCM1000000b205a0aRCRD,"CALLE PEÑA GORBEA, 17, B",SAN DIEGO,40.3957812018463,-3.6670346724676173,Parques Jardines
5964328,Jardín del Maestro Padilla,0,http://www.madrid.es/vgn-ext-templating/v/index.jsp?vgnextchannel=9e4c43db40317010VgnVCM100000dc0ca8c0RCRD&vgnextoid=40538ced5a23e210VgnVCM1000000b205a0aRCRD,"CALLE SAN ALEJANDRO, 1",IMPERIAL,40.404491323444994,-3.7213308239798675,Parques Jardines
5981891,Jardín del Templo de Debod,0,http://www.madrid.es/vgn-ext-templating/v/index.jsp?vgnextchannel=9e4c43db40317010VgnVCM100000dc0ca8c0RCRD&vgnextoid=c9c8f88faab7e210VgnVCM1000000b205a0aRCRD,"CALLE FERRAZ, 1",CASA DE CAMPO,40.42425096551599,-3.716531855540272,Parques Jardines
5981149,Jardín el Torero,0,http://www.madrid.es/vgn-ext-templating/v/index.jsp?vgnextchannel=9e4c43db40317010VgnVCM100000dc0ca8c0RCRD&vgnextoid=ee1a6a14ec67e210VgnVCM2000000c205a0aRCRD,"CALLE TORERO, 6",MOSCARDO,40.39218269145896,-3.7056345651289417,Parques Jardines
1984,Pabellón de los Jardines de Cecilio Rodríguez,0,http://www.madrid.es/vgn-ext-templating/v/index.jsp?vgnextchannel=9e4c43db40317010VgnVCM100000dc0ca8c0RCRD&vgnextoid=0d8def4d7f71c010VgnVCM1000000b205a0aRCRD,PASEO URUGUAY,NIÑO JESUS,40.41250110617827,-3.676499075231239,Parques Jardines
5966148,Parque Agustín Rodríguez Sahagún,0,http://www.madrid.es/vgn-ext-templating/v/index.jsp?vgnextchannel=9e4c43db40317010VgnVCM100000dc0ca8c0RCRD&vgnextoid=a7a655b6e783e210VgnVCM1000000b205a0aRCRD,"PASEO DIRECCION, 301",VALDEACEDERAS,40.47022952429582,-3.7038792453996385,Parques Jardines
5979527,Parque Alcampo,0,http://www.madrid.es/vgn-ext-templating/v/index.jsp?vgnextchannel=9e4c43db40317010VgnVCM100000dc0ca8c0RCRD&vgnextoid=6b4d31811a17e210VgnVCM1000000b205a0aRCRD,"CALLE CAMINO DE LOS VINATEROS, 1",MEDIA LEGUA,40.410944943237865,-3.660501733743551,Parques Jardines
5993604,Parque Almansa,0,http://www.madrid.es/vgn-ext-templating/v/index.jsp?vgnextchannel=9e4c43db40317010VgnVCM100000dc0ca8c0RCRD&vgnextoid=667c1544198be210VgnVCM2000000c205a0aRCRD,"CALLE ALMANSA, 97",CIUDAD UNIVERSITARIA,40.449252672650985,-3.7133420888843105,Parques Jardines
5984172,Parque Aluche,0,http://www.madrid.es/vgn-ext-templating/v/index.jsp?vgnextchannel=9e4c43db40317010VgnVCM100000dc0ca8c0RCRD&vgnextoid=c5b4abb9e009e210VgnVCM1000000b205a0aRCRD,"CALLE TEMBLEQUE, 45",ALUCHE,40.394320359418835,-3.7592814565910553,Parques Jardines
5986186,Parque Aluche - Poblados,0,http://www.madrid.es/vgn-ext-templating/v/index.jsp?vgnextchannel=9e4c43db40317010VgnVCM100000dc0ca8c0RCRD&vgnextoid=f96136c32a59e210VgnVCM2000000c205a0aRCRD,"CALLE GUAREÑA, 22",LAS AGUILAS,40.38543450752234,-3.765190215590101,Parques Jardines
5981072,Parque Alzola,0,http://www.madrid.es/vgn-ext-templating/v/index.jsp?vgnextchannel=9e4c43db40317010VgnVCM100000dc0ca8c0RCRD&vgnextoid=82a58b930b67e210VgnVCM2000000c205a0aRCRD,"CALLE BEASAIN, 2",ORCASITAS,40.36716919688689,-3.7136655626692887,Parques Jardines
5994520,Parque Antonio Pirala,0,http://www.madrid.es/vgn-ext-templating/v/index.jsp?vgnextchannel=9e4c43db40317010VgnVCM100000dc0ca8c0RCRD&vgnextoid=d77f1a2a419be210VgnVCM1000000b205a0aRCRD,"CALLE ANTONIO PIRALA, 8",VENTAS,40.428652595625735,-3.659649292346212,Parques Jardines
5962985,Parque Anunciación,0,http://www.madrid.es/vgn-ext-templating/v/index.jsp?vgnextchannel=9e4c43db40317010VgnVCM100000dc0ca8c0RCRD&vgnextoid=18f52d0109d2e210VgnVCM2000000c205a0aRCRD,"CALLE ANUNCIACION, 1",NIÑO JESUS,40.41192841997151,-3.67583331713166,Parques Jardines
5985636,Parque Arquitecto Antonio Palacios,0,http://www.madrid.es/vgn-ext-templating/v/index.jsp?vgnextchannel=9e4c43db40317010VgnVCM100000dc0ca8c0RCRD&vgnextoid=a4e39f4e0f49e210VgnVCM2000000c205a0aRCRD,"CALLE FENELON, 17",CANILLEJAS,40.43847239256322,-3.6087501533089923,Parques Jardines
5979932,Parque Arroyo Fontarrón,0,http://www.madrid.es/vgn-ext-templating/v/index.jsp?vgnextchannel=9e4c43db40317010VgnVCM100000dc0ca8c0RCRD&vgnextoid=38c946a92b57e210VgnVCM1000000b205a0aRCRD,"CALLE ARROYO FONTARRON, 22",PAVONES,40.39476596114844,-3.6361646051817518,Parques Jardines
5993155,Parque Arroyo Fresno,0,http://www.madrid.es/vgn-ext-templating/v/index.jsp?vgnextchannel=9e4c43db40317010VgnVCM100000dc0ca8c0RCRD&vgnextoid=915fc8c5494be210VgnVCM2000000c205a0aRCRD,"AVENIDA VENTISQUERO DE LA CONDESA, 43",MIRASIERRA,40.49284296962057,-3.7169069720385446,Parques Jardines
5992721,Parque Arroyo de los Pinos,0,http://www.madrid.es/vgn-ext-templating/v/index.jsp?vgnextchannel=9e4c43db40317010VgnVCM100000dc0ca8c0RCRD&vgnextoid=3b97545fb44be210VgnVCM2000000c205a0aRCRD,"CALLE JOAQUIN LORENZO, 21",PEÑA GRANDE,40.47343735166941,-3.7241915440169024,Parques Jardines
5982306,Parque Avenida de Portugal,0,http://www.madrid.es/vgn-ext-templating/v/index.jsp?vgnextchannel=9e4c43db40317010VgnVCM100000dc0ca8c0RCRD&vgnextoid=4838d459b008e210VgnVCM1000000b205a0aRCRD,"AUTOVIA A-5, 300",PUERTA DEL ANGEL,40.41214880704316,-3.7356620312409365,Parques Jardines
5977882,Parque Azorín,0,http://www.madrid.es/vgn-ext-templating/v/index.jsp?vgnextchannel=9e4c43db40317010VgnVCM100000dc0ca8c0RCRD&vgnextoid=dcdc36e498c6e210VgnVCM2000000c205a0aRCRD,"AVENIDA ALBUFERA, 142",PALOMERAS BAJAS,40.39144717132174,-3.6545377410677498,Parques Jardines
5983153,Parque Barrio Las Musas,0,http://www.madrid.es/vgn-ext-templating/v/index.jsp?vgnextchannel=9e4c43db40317010VgnVCM100000dc0ca8c0RCRD&vgnextoid=bf326ca7fd08e210VgnVCM1000000b205a0aRCRD,"AVENIDA NIZA, 55, B",ROSAS,40.43173953068984,-3.607628369908832,Parques Jardines
6064773,Parque Begoña,0,http://www.madrid.es/vgn-ext-templating/v/index.jsp?vgnextchannel=9e4c43db40317010VgnVCM100000dc0ca8c0RCRD&vgnextoid=8b240b11e59df210VgnVCM2000000c205a0aRCRD,"CALLE SAN MODESTO, 1",VALVERDE,40.48390626699566,-3.687220746230517,Parques Jardines
5991086,Parque Biosaludable,0,http://www.madrid.es/vgn-ext-templating/v/index.jsp?vgnextchannel=9e4c43db40317010VgnVCM100000dc0ca8c0RCRD&vgnextoid=4cefff6b235ae210VgnVCM1000000b205a0aRCRD,"PASEO ALAMEDA DE OSUNA, 8",ALAMEDA DE OSUNA,40.452057731817305,-3.6036483614197765,Parques Jardines
5995307,Parque Camino de Vasares,0,http://www.madrid.es/vgn-ext-templating/v/index.jsp?vgnextchannel=9e4c43db40317010VgnVCM100000dc0ca8c0RCRD&vgnextoid=b0c8b404aa9be210VgnVCM1000000b205a0aRCRD,"CAMINO VASARES, 4",SANTA EUGENIA,40.38328847671297,-3.617866520556781,Parques Jardines
5977653,Parque Campo de la Paloma,0,http://www.madrid.es/vgn-ext-templating/v/index.jsp?vgnextchannel=9e4c43db40317010VgnVCM100000dc0ca8c0RCRD&vgnextoid=9dfae2fa26c6e210VgnVCM2000000c205a0aRCRD,"AVENIDA RAFAEL ALBERTI, 38",PALOMERAS SURESTE,40.38339946706653,-3.643762543356842,Parques Jardines
5984392,Parque Caramuel,0,http://www.madrid.es/vgn-ext-templating/v/index.jsp?vgnextchannel=9e4c43db40317010VgnVCM100000dc0ca8c0RCRD&vgnextoid=272fc45f7309e210VgnVCM1000000b205a0aRCRD,"CALLE CARAMUEL, 53",PUERTA DEL ANGEL,40.4081704733386,-3.729395994595502,Parques Jardines
5982718,Parque Cerro Almodóvar,0,http://www.madrid.es/vgn-ext-templating/v/index.jsp?vgnextchannel=9e4c43db40317010VgnVCM100000dc0ca8c0RCRD&vgnextoid=0568fda02908e210VgnVCM1000000b205a0aRCRD,"CALLE MARCELINO CASTILLO, 29",ALUCHE,40.393928614376,-3.744713323980896,Parques Jardines
5995330,Parque Cerro Peñabel,0,http://www.madrid.es/vgn-ext-templating/v/index.jsp?vgnextchannel=9e4c43db40317010VgnVCM100000dc0ca8c0RCRD&vgnextoid=4ffeb404aa9be210VgnVCM1000000b205a0aRCRD,"CALLE CANDIDO MATEOS, 12",PEÑA GRANDE,40.47406043289477,-3.718181785566969,Parques Jardines
5978133,Parque Cerro del Tío Pío,0,http://www.madrid.es/vgn-ext-templating/v/index.jsp?vgnextchannel=9e4c43db40317010VgnVCM100000dc0ca8c0RCRD&vgnextoid=956bf5edd607e210VgnVCM1000000b205a0aRCRD,"CALLE BENJAMIN PALENCIA, 2",NUMANCIA,40.39701982315709,-3.655239797848888,Parques Jardines
5991635,Parque Cerro Águila,0,http://www.madrid.es/vgn-ext-templating/v/index.jsp?vgnextchannel=9e4c43db40317010VgnVCM100000dc0ca8c0RCRD&vgnextoid=129b315b7b3be210VgnVCM2000000c205a0aRCRD,"CAMINO CERRO DEL AGUILA, 1",ARAVACA,40.45190771190827,-3.761757187185669,Parques Jardines
5979417,Parque Ciudad de los Ángeles,0,http://www.madrid.es/vgn-ext-templating/v/index.jsp?vgnextchannel=9e4c43db40317010VgnVCM100000dc0ca8c0RCRD&vgnextoid=ca515ce64717e210VgnVCM2000000c205a0aRCRD,"CALLE ANOETA, 14, B",LOS ANGELES,40.352850949880235,-3.6963807727286353,Parques Jardines
5991699,Parque Cuesta del Galbán,0,http://www.madrid.es/vgn-ext-templating/v/index.jsp?vgnextchannel=9e4c43db40317010VgnVCM100000dc0ca8c0RCRD&vgnextoid=c37e65ba3d3be210VgnVCM2000000c205a0aRCRD,"CUESTA GALBAN, 2",ARAVACA,40.45019927443574,-3.768070614824996,Parques Jardines
6457169,Parque Cuña Verde de Vicálvaro. Zona A,0,http://www.madrid.es/vgn-ext-templating/v/index.jsp?vgnextchannel=9e4c43db40317010VgnVCM100000dc0ca8c0RCRD&vgnextoid=402f9191ce6b7310VgnVCM2000000c205a0aRCRD,"AVENIDA DAROCA, 300",AMBROZ,40.40969329689759,-3.618025439807104,Parques Jardines
5984224,Parque Cuña Verde de Vicálvaro. Zona B,0,http://www.madrid.es/vgn-ext-templating/v/index.jsp?vgnextchannel=9e4c43db40317010VgnVCM100000dc0ca8c0RCRD&vgnextoid=2030b8c8d109e210VgnVCM2000000c205a0aRCRD,"AVENIDA DAROCA, 299",AMBROZ,40.40930295868704,-3.616890442862423,Parques Jardines
5987289,Parque Duque de Ahumada,0,http://www.madrid.es/vgn-ext-templating/v/index.jsp?vgnextchannel=9e4c43db40317010VgnVCM100000dc0ca8c0RCRD&vgnextoid=9445ff7fa5a9e210VgnVCM1000000b205a0aRCRD,"CALLE LAGO VAN, 16",CASCO H.VICALVARO,40.4048457851104,-3.6062315414157613,Parques Jardines
5994901,Parque El Calero,0,http://www.madrid.es/vgn-ext-templating/v/index.jsp?vgnextchannel=9e4c43db40317010VgnVCM100000dc0ca8c0RCRD&vgnextoid=ba9545b9b59be210VgnVCM2000000c205a0aRCRD,"CALLE JOSE DEL HIERRO, 1",CONCEPCION,40.43555222953495,-3.6519351470803567,Parques Jardines
5995399,Parque El Cedral,0,http://www.madrid.es/vgn-ext-templating/v/index.jsp?vgnextchannel=9e4c43db40317010VgnVCM100000dc0ca8c0RCRD&vgnextoid=505093e51b9be210VgnVCM2000000c205a0aRCRD,"CALLE ARTURO SORIA, 233",ATALAYA,40.462882951414265,-3.6650441004626564,Parques Jardines
5981476,Parque El Cruce,0,http://www.madrid.es/vgn-ext-templating/v/index.jsp?vgnextchannel=9e4c43db40317010VgnVCM100000dc0ca8c0RCRD&vgnextoid=03ff24622fa7e210VgnVCM2000000c205a0aRCRD,"CALLE ALCOCER, 1",LOS ANGELES,40.350970403692386,-3.6944891243298597,Parques Jardines
6012426,Parque Emir Mohamed I,0,http://www.madrid.es/vgn-ext-templating/v/index.jsp?vgnextchannel=9e4c43db40317010VgnVCM100000dc0ca8c0RCRD&vgnextoid=6671a26fbf7ee210VgnVCM1000000b205a0aRCRD,"CUESTA RAMON, 1",PALACIO,40.41438785232736,-3.7147888896558188,Parques Jardines
5991419,Parque Emperatriz María de Austria,0,http://www.madrid.es/vgn-ext-templating/v/index.jsp?vgnextchannel=9e4c43db40317010VgnVCM100000dc0ca8c0RCRD&vgnextoid=57fc4fc4583be210VgnVCM1000000b205a0aRCRD,"CALLE VIA LUSITANA, 3",ABRANTES,40.382311100280766,-3.7227552919050586,Parques Jardines
5965783,Parque Enrique Tierno Galván,0,http://www.madrid.es/vgn-ext-templating/v/index.jsp?vgnextchannel=9e4c43db40317010VgnVCM100000dc0ca8c0RCRD&vgnextoid=e09f680e2383e210VgnVCM1000000b205a0aRCRD,"CALLE MENESES, 4",LEGAZPI,40.39210151448589,-3.681620654746187,Parques Jardines
5979033,Parque Entrevías Forestal,0,http://www.madrid.es/vgn-ext-templating/v/index.jsp?vgnextchannel=9e4c43db40317010VgnVCM100000dc0ca8c0RCRD&vgnextoid=5be77fb92217e210VgnVCM1000000b205a0aRCRD,"CALLE EMBAJADORES, 251",ENTREVIAS,40.36782603611024,-3.6670181171393064,Parques Jardines
5978478,Parque Entrevías Urbano,0,http://www.madrid.es/vgn-ext-templating/v/index.jsp?vgnextchannel=9e4c43db40317010VgnVCM100000dc0ca8c0RCRD&vgnextoid=0190f1d80c07e210VgnVCM1000000b205a0aRCRD,"RONDA SUR, 8",ENTREVIAS,40.37253969509114,-3.6698091602059613,Parques Jardines
5986948,Parque Este de Valdebernardo,0,http://www.madrid.es/vgn-ext-templating/v/index.jsp?vgnextchannel=9e4c43db40317010VgnVCM100000dc0ca8c0RCRD&vgnextoid=ef74c9728e99e210VgnVCM1000000b205a0aRCRD,"AVENIDA DEMOCRACIA, 25",CASCO H.VICALVARO,40.393429973468265,-3.6183833916362733,Parques Jardines
5991581,Parque Eugenia de Montijo,0,http://www.madrid.es/vgn-ext-templating/v/index.jsp?vgnextchannel=9e4c43db40317010VgnVCM100000dc0ca8c0RCRD&vgnextoid=4d86dd17d93be210VgnVCM1000000b205a0aRCRD,"CALLE PARQUE EUGENIA DE MONTIJO, 3",VISTA ALEGRE,40.37942623334737,-3.7527174453988774,Parques Jardines
6009920,Parque Eva Duarte,0,http://www.madrid.es/vgn-ext-templating/v/index.jsp?vgnextchannel=9e4c43db40317010VgnVCM100000dc0ca8c0RCRD&vgnextoid=a55f223d4b2ee210VgnVCM1000000b205a0aRCRD,"CALLE DOCTOR GOMEZ ULLA, 9",GUINDALERA,40.42985671996897,-3.668031432543624,Parques Jardines
5968930,Parque Félix Rodríguez de la Fuente,0,http://www.madrid.es/vgn-ext-templating/v/index.jsp?vgnextchannel=9e4c43db40317010VgnVCM100000dc0ca8c0RCRD&vgnextoid=f1b7e63d0384e210VgnVCM1000000b205a0aRCRD,"CALLE PADRE CLARET, 38",PROSPERIDAD,40.45205238274073,-3.6653500732558792,Parques Jardines
5982998,Parque General Fanjul - Santa Margarita,0,http://www.madrid.es/vgn-ext-templating/v/index.jsp?vgnextchannel=9e4c43db40317010VgnVCM100000dc0ca8c0RCRD&vgnextoid=972c17fe7c08e210VgnVCM1000000b205a0aRCRD,"AVENIDA GENERAL FANJUL, 144",LAS AGUILAS,40.38033890061462,-3.7834984766161837,Parques Jardines
6004533,Parque Hortaleza,0,http://www.madrid.es/vgn-ext-templating/v/index.jsp?vgnextchannel=9e4c43db40317010VgnVCM100000dc0ca8c0RCRD&vgnextoid=b482c897848de210VgnVCM1000000b205a0aRCRD,"CARRETERA ESTACION DE HORTALEZA, 18",PINAR DEL REY,40.48024318499327,-3.650809942180937,Parques Jardines
5966383,Parque Huerta del Obispo (Tetuán),0,http://www.madrid.es/vgn-ext-templating/v/index.jsp?vgnextchannel=9e4c43db40317010VgnVCM100000dc0ca8c0RCRD&vgnextoid=6e8d0682bb83e210VgnVCM1000000b205a0aRCRD,"PASEO DIRECCION, 200",VALDEACEDERAS,40.46618230558725,-3.708661389822736,Parques Jardines
5981830,Parque Huerta del Obispo (Villaverde),0,http://www.madrid.es/vgn-ext-templating/v/index.jsp?vgnextchannel=9e4c43db40317010VgnVCM100000dc0ca8c0RCRD&vgnextoid=2899b20479b7e210VgnVCM2000000c205a0aRCRD,"CALLE PALOMARES, 34",SAN ANDRES,40.346980092315505,-3.712145719392749,Parques Jardines
5993167,Parque La Rinconada,0,http://www.madrid.es/vgn-ext-templating/v/index.jsp?vgnextchannel=9e4c43db40317010VgnVCM100000dc0ca8c0RCRD&vgnextoid=60ce7016894be210VgnVCM1000000b205a0aRCRD,"CALLE HIENDELAENCINA, 9",ARAVACA,40.45750725687833,-3.7664554910416252,Parques Jardines
5978304,Parque La Viña,0,http://www.madrid.es/vgn-ext-templating/v/index.jsp?vgnextchannel=9e4c43db40317010VgnVCM100000dc0ca8c0RCRD&vgnextoid=848eeef66907e210VgnVCM1000000b205a0aRCRD,"CALLE TIMOTEO PEREZ RUBIO, 9",ENTREVIAS,40.38556774381467,-3.67430914572838,Parques Jardines
5977748,Parque Lineal de Palomeras,0,http://www.madrid.es/vgn-ext-templating/v/index.jsp?vgnextchannel=9e4c43db40317010VgnVCM100000dc0ca8c0RCRD&vgnextoid=d757e2fa26c6e210VgnVCM2000000c205a0aRCRD,"AVENIDA ALBUFERA, 293",PALOMERAS SURESTE,40.38581882868559,-3.6363631773029352,Parques Jardines
5963936,Parque Martin Luther King,0,http://www.madrid.es/vgn-ext-templating/v/index.jsp?vgnextchannel=9e4c43db40317010VgnVCM100000dc0ca8c0RCRD&vgnextoid=14ec3abc4be2e210VgnVCM1000000b205a0aRCRD,"CALLE CERRO NEGRO, 1",ADELFAS,40.398195733324194,-3.6701340560704026,Parques Jardines
5983593,Parque Meseta de Orcasitas,0,http://www.madrid.es/vgn-ext-templating/v/index.jsp?vgnextchannel=9e4c43db40317010VgnVCM100000dc0ca8c0RCRD&vgnextoid=1f344f963318e210VgnVCM1000000b205a0aRCRD,"RONDA COOPERATIVAS, 6",ORCASITAS,40.3673502443602,-3.7076605178679096,Parques Jardines
5965953,Parque Mirador de Tierno Galván,0,http://www.madrid.es/vgn-ext-templating/v/index.jsp?vgnextchannel=9e4c43db40317010VgnVCM100000dc0ca8c0RCRD&vgnextoid=5fd8433bf683e210VgnVCM1000000b205a0aRCRD,"CALLE NEBULOSAS, 7",DELICIAS,40.394735491209424,-3.6856299107811368,Parques Jardines
6006578,Parque Mirador de las Cárcavas,0,http://www.madrid.es/vgn-ext-templating/v/index.jsp?vgnextchannel=9e4c43db40317010VgnVCM100000dc0ca8c0RCRD&vgnextoid=fdbec6fde0dde210VgnVCM2000000c205a0aRCRD,"CALLE RAFAELA APARICIO, 2",VALDEFUENTES,40.47917989766592,-3.6330084507532687,Parques Jardines
5997754,Parque Nudo Norte de Begoña,0,http://www.madrid.es/vgn-ext-templating/v/index.jsp?vgnextchannel=9e4c43db40317010VgnVCM100000dc0ca8c0RCRD&vgnextoid=28588ffa023ce210VgnVCM1000000b205a0aRCRD,"AVENIDA LLANO CASTELLANO, 1",VALVERDE,40.483895554775785,-3.6844715393162772,Parques Jardines
5983597,Parque Olof Palme,0,http://www.madrid.es/vgn-ext-templating/v/index.jsp?vgnextchannel=9e4c43db40317010VgnVCM100000dc0ca8c0RCRD&vgnextoid=5af9053c8718e210VgnVCM1000000b205a0aRCRD,"CALLE CERECINOS, 1",ZOFIO,40.38439900273861,-3.7129519968429445,Parques Jardines
5991690,Parque Paseo Muñoz Grandes,0,http://www.madrid.es/vgn-ext-templating/v/index.jsp?vgnextchannel=9e4c43db40317010VgnVCM100000dc0ca8c0RCRD&vgnextoid=2bc1fe8cec3be210VgnVCM1000000b205a0aRCRD,"PASEO MUÑOZ GRANDES, 6",VISTA ALEGRE,40.385086008433305,-3.7398326701482016,Parques Jardines
5978254,Parque Payaso Fofó,0,http://www.madrid.es/vgn-ext-templating/v/index.jsp?vgnextchannel=9e4c43db40317010VgnVCM100000dc0ca8c0RCRD&vgnextoid=3cadb9566807e210VgnVCM1000000b205a0aRCRD,"CALLE PAYASO FOFO, 11",PALOMERAS BAJAS,40.38901086962944,-3.6599692832803825,Parques Jardines
5966334,Parque Peñuelas,0,http://www.madrid.es/vgn-ext-templating/v/index.jsp?vgnextchannel=9e4c43db40317010VgnVCM100000dc0ca8c0RCRD&vgnextoid=41b0a2aad983e210VgnVCM2000000c205a0aRCRD,"CALLE GARGANTILLA, 2",ACACIAS,40.39900396358797,-3.703926416750334,Parques Jardines
5995661,Parque Pinar de la Elipa,0,http://www.madrid.es/vgn-ext-templating/v/index.jsp?vgnextchannel=9e4c43db40317010VgnVCM100000dc0ca8c0RCRD&vgnextoid=dd872e3d07cbe210VgnVCM2000000c205a0aRCRD,"CALLE FELIX RODRIGUEZ DE LA FUENTE, 26",VENTAS,40.418806485625446,-3.6563469592354387,Parques Jardines
6007525,Parque Pinar del Rey,0,http://www.madrid.es/vgn-ext-templating/v/index.jsp?vgnextchannel=9e4c43db40317010VgnVCM100000dc0ca8c0RCRD&vgnextoid=d53460fc97dde210VgnVCM2000000c205a0aRCRD,"CARRETERA CANILLAS, 1",CANILLAS,40.463441129364256,-3.6556488853143465,Parques Jardines
5985975,Parque Plaza Chozas de Canales,0,http://www.madrid.es/vgn-ext-templating/v/index.jsp?vgnextchannel=9e4c43db40317010VgnVCM100000dc0ca8c0RCRD&vgnextoid=4d56195e7559e210VgnVCM2000000c205a0aRCRD,"CARRETERA VILLAVERDE A VALLECAS, 10",LOS ROSALES,40.35277786522202,-3.6905392176697744,Parques Jardines
5986841,Parque Plaza Colonia Oroquieta,0,http://www.madrid.es/vgn-ext-templating/v/index.jsp?vgnextchannel=9e4c43db40317010VgnVCM100000dc0ca8c0RCRD&vgnextoid=920907ea5d99e210VgnVCM2000000c205a0aRCRD,"CARRETERA VILLAVERDE A VALLECAS, 1, B",LOS ROSALES,40.35239211569256,-3.691771736219469,Parques Jardines
5993732,Parque Plaza de España,0,http://www.madrid.es/vgn-ext-templating/v/index.jsp?vgnextchannel=9e4c43db40317010VgnVCM100000dc0ca8c0RCRD&vgnextoid=e5021544198be210VgnVCM2000000c205a0aRCRD,"PLAZA ESPAÑA, 20",ARGUELLES,40.42372251184839,-3.7116577340508523,Parques Jardines
5963656,Parque Roma,0,http://www.madrid.es/vgn-ext-templating/v/index.jsp?vgnextchannel=9e4c43db40317010VgnVCM100000dc0ca8c0RCRD&vgnextoid=675e280d37e2e210VgnVCM1000000b205a0aRCRD,"CALLE JUAN ESPLANDIU, 4",ESTRELLA,40.41641041087398,-3.662606100328213,Parques Jardines
5995523,Parque Salvador de Madariaga,0,http://www.madrid.es/vgn-ext-templating/v/index.jsp?vgnextchannel=9e4c43db40317010VgnVCM100000dc0ca8c0RCRD&vgnextoid=51f610b32d9be210VgnVCM2000000c205a0aRCRD,"CALLE SALVADOR DE MADARIAGA, 9",SAN PASCUAL,40.439387584092685,-3.6571484128652396,Parques Jardines
5985083,Parque San Blas. El Paraíso,0,http://www.madrid.es/vgn-ext-templating/v/index.jsp?vgnextchannel=9e4c43db40317010VgnVCM100000dc0ca8c0RCRD&vgnextoid=9967511f3649e210VgnVCM2000000c205a0aRCRD,"AVENIDA ARCENTALES, 4",HELLIN,40.42996840999023,-3.622184001035289,Parques Jardines
5963115,Parque San José de Calasanz,0,http://www.madrid.es/vgn-ext-templating/v/index.jsp?vgnextchannel=9e4c43db40317010VgnVCM100000dc0ca8c0RCRD&vgnextoid=7898311dbbd2e210VgnVCM2000000c205a0aRCRD,"CALLE JOAQUIN MARIA LOPEZ, 39",GAZTAMBIDE,40.43761436823094,-3.7145867743039878,Parques Jardines
5995933,Parque San Juan Bautista,0,http://www.madrid.es/vgn-ext-templating/v/index.jsp?vgnextchannel=9e4c43db40317010VgnVCM100000dc0ca8c0RCRD&vgnextoid=816eec727cdbe210VgnVCM2000000c205a0aRCRD,"CALLE AGASTIA, 87",SAN JUAN BAUTISTA,40.451304609076615,-3.6558964974118364,Parques Jardines
6010395,Parque Sancho Dávila,0,http://www.madrid.es/vgn-ext-templating/v/index.jsp?vgnextchannel=9e4c43db40317010VgnVCM100000dc0ca8c0RCRD&vgnextoid=6926a3575e2ee210VgnVCM2000000c205a0aRCRD,"PLAZA AMERICA ESPAÑOLA, 4",FUENTE DEL BERRO,40.42949627920971,-3.6617795915510434,Parques Jardines
5997450,Parque Santa Eugenia,0,http://www.madrid.es/vgn-ext-templating/v/index.jsp?vgnextchannel=9e4c43db40317010VgnVCM100000dc0ca8c0RCRD&vgnextoid=db73abd0991ce210VgnVCM1000000b205a0aRCRD,"CALLE ZAZUAR, 12",SANTA EUGENIA,40.38131130575197,-3.608459149580722,Parques Jardines
5990397,Parque Santa Rita,0,http://www.madrid.es/vgn-ext-templating/v/index.jsp?vgnextchannel=9e4c43db40317010VgnVCM100000dc0ca8c0RCRD&vgnextoid=c2fefb42fb4ae210VgnVCM2000000c205a0aRCRD,"CALLE ALBA DE TORMES, 2",PUERTA BONITA,40.379040097900265,-3.742770522229555,Parques Jardines
5983453,Parque Segura,0,http://www.madrid.es/vgn-ext-templating/v/index.jsp?vgnextchannel=9e4c43db40317010VgnVCM100000dc0ca8c0RCRD&vgnextoid=f6105a8a5118e210VgnVCM1000000b205a0aRCRD,"CALLE SEGURA, 5",ORCASITAS,40.368011394592635,-3.7158770172855813,Parques Jardines
5978156,Parque Soto de Entrevías,0,http://www.madrid.es/vgn-ext-templating/v/index.jsp?vgnextchannel=9e4c43db40317010VgnVCM100000dc0ca8c0RCRD&vgnextoid=aa18e6b39707e210VgnVCM1000000b205a0aRCRD,"CARRETERA ACCESO A LA ESTACION DE AUTOBUSES DE LA E.M.T., 9",ENTREVIAS,40.376563359161366,-3.675043967167776,Parques Jardines
6451784,Parque Valdebernardo Este,0,http://www.madrid.es/vgn-ext-templating/v/index.jsp?vgnextchannel=9e4c43db40317010VgnVCM100000dc0ca8c0RCRD&vgnextoid=bd7e544ed3d97310VgnVCM2000000c205a0aRCRD,"CALLE CORDEL DE PAVONES, s/n",CASCO H.VICALVARO,40.39852345013535,-3.619443399695573,Parques Jardines
6457128,Parque Valdebernardo M - 40,0,http://www.madrid.es/vgn-ext-templating/v/index.jsp?vgnextchannel=9e4c43db40317010VgnVCM100000dc0ca8c0RCRD&vgnextoid=08c6d27a5c6b7310VgnVCM2000000c205a0aRCRD,"CALLE LADERA DE LOS ALMENDROS, 0",CASCO H.VICALVARO,40.40418961057298,-3.622901144863193,Parques Jardines
6003192,Parque Valle de Enmedio,0,http://www.madrid.es/vgn-ext-templating/v/index.jsp?vgnextchannel=9e4c43db40317010VgnVCM100000dc0ca8c0RCRD&vgnextoid=86803c95f87de210VgnVCM1000000b205a0aRCRD,"CALLE MIRADOR DE LA REINA, 22",MIRASIERRA,40.48922371593969,-3.7237594350747143,Parques Jardines
5983786,Parque Vandel,0,http://www.madrid.es/vgn-ext-templating/v/index.jsp?vgnextchannel=9e4c43db40317010VgnVCM100000dc0ca8c0RCRD&vgnextoid=236dc11457f8e210VgnVCM2000000c205a0aRCRD,"CALLE MOLINA DE SEGURA, 10",MARROQUINA,40.4049148503112,-3.636955454805149,Parques Jardines
5981878,Parque Virgen de la Esperanza,0,http://www.madrid.es/vgn-ext-templating/v/index.jsp?vgnextchannel=9e4c43db40317010VgnVCM100000dc0ca8c0RCRD&vgnextoid=73aba8be5ab7e210VgnVCM2000000c205a0aRCRD,"CALLE ANOETA, 45",LOS ANGELES,40.351030215596516,-3.7010015933831006,Parques Jardines
5968415,Parque de Alfonso XIII,0,http://www.madrid.es/vgn-ext-templating/v/index.jsp?vgnextchannel=9e4c43db40317010VgnVCM100000dc0ca8c0RCRD&vgnextoid=45a10c3e4f74e210VgnVCM2000000c205a0aRCRD,"AVENIDA ALFONSO XIII, 136",NUEVA ESPAÑA,40.45990434942118,-3.669142805075655,Parques Jardines
5986764,Parque de Amos Acero,0,http://www.madrid.es/vgn-ext-templating/v/index.jsp?vgnextchannel=9e4c43db40317010VgnVCM100000dc0ca8c0RCRD&vgnextoid=c723cd641b99e210VgnVCM2000000c205a0aRCRD,"CALLE SIERRA MOLINA, 1",SAN DIEGO,40.38903628994235,-3.6665321826830297,Parques Jardines
5992569,Parque de Ana Tutor,0,http://www.madrid.es/vgn-ext-templating/v/index.jsp?vgnextchannel=9e4c43db40317010VgnVCM100000dc0ca8c0RCRD&vgnextoid=bc96896bd24be210VgnVCM2000000c205a0aRCRD,"CALLE VALLE DE PINARES LLANOS, 1",PEÑA GRANDE,40.48559668319756,-3.7174080145343464,Parques Jardines
5994605,Parque de Arriaga,0,http://www.madrid.es/vgn-ext-templating/v/index.jsp?vgnextchannel=9e4c43db40317010VgnVCM100000dc0ca8c0RCRD&vgnextoid=964f0583e29be210VgnVCM1000000b205a0aRCRD,"AVENIDA DAROCA, 95",PUEBLO NUEVO,40.425090271008656,-3.6427216652412877,Parques Jardines
6009741,Parque de Atenas,0,http://www.madrid.es/vgn-ext-templating/v/index.jsp?vgnextchannel=9e4c43db40317010VgnVCM100000dc0ca8c0RCRD&vgnextoid=e4de4bc5292ee210VgnVCM2000000c205a0aRCRD,"CALLE SEGOVIA, 28",PALACIO,40.413971277014085,-3.715138075489171,Parques Jardines
5969105,Parque de Berlín,0,http://www.madrid.es/vgn-ext-templating/v/index.jsp?vgnextchannel=9e4c43db40317010VgnVCM100000dc0ca8c0RCRD&vgnextoid=d2e70e165684e210VgnVCM1000000b205a0aRCRD,"AVENIDA RAMON Y CAJAL, 2",CIUDAD JARDIN,40.45150372849227,-3.6760645355093797,Parques Jardines
6010393,Parque de Breogán,0,http://www.madrid.es/vgn-ext-templating/v/index.jsp?vgnextchannel=9e4c43db40317010VgnVCM100000dc0ca8c0RCRD&vgnextoid=05d3a3575e2ee210VgnVCM2000000c205a0aRCRD,"AVENIDA BRASILIA, 2",GUINDALERA,40.437140971249754,-3.6608995093418306,Parques Jardines
5984659,Parque de Canillejas,0,http://www.madrid.es/vgn-ext-templating/v/index.jsp?vgnextchannel=9e4c43db40317010VgnVCM100000dc0ca8c0RCRD&vgnextoid=0da848147809e210VgnVCM2000000c205a0aRCRD,"CALLE CIRCE, 57",CANILLEJAS,40.44191186628217,-3.610832880429799,Parques Jardines
5986854,Parque de Comillas,0,http://www.madrid.es/vgn-ext-templating/v/index.jsp?vgnextchannel=9e4c43db40317010VgnVCM100000dc0ca8c0RCRD&vgnextoid=353f07ea5d99e210VgnVCM2000000c205a0aRCRD,"CALLE MIGUEL SORIANO, 1",COMILLAS,40.39191419121823,-3.7141505979369023,Parques Jardines
5981170,Parque de Darwin,0,http://www.madrid.es/vgn-ext-templating/v/index.jsp?vgnextchannel=9e4c43db40317010VgnVCM100000dc0ca8c0RCRD&vgnextoid=7aedfbb16c67e210VgnVCM1000000b205a0aRCRD,"CALLE MANUEL MARIA ARRILLAGA, 29, B",FONTARRON,40.40687979108534,-3.660862691056585,Parques Jardines
6003042,Parque de Doña Guiomar,0,http://www.madrid.es/vgn-ext-templating/v/index.jsp?vgnextchannel=9e4c43db40317010VgnVCM100000dc0ca8c0RCRD&vgnextoid=2f78b595187de210VgnVCM2000000c205a0aRCRD,"CARRETERA ESTACION DE HORTALEZA, 7",APOSTOL SANTIAGO,40.47600256074518,-3.6551340067790528,Parques Jardines
5963981,Parque de Enrique Herreros,0,http://www.madrid.es/vgn-ext-templating/v/index.jsp?vgnextchannel=9e4c43db40317010VgnVCM100000dc0ca8c0RCRD&vgnextoid=5d89b70bfbe2e210VgnVCM2000000c205a0aRCRD,"CALLE BRAVO MURILLO, 49",VALLEHERMOSO,40.43934359051524,-3.7043941647283263,Parques Jardines
5993103,Parque de Francos Rodríguez,0,http://www.madrid.es/vgn-ext-templating/v/index.jsp?vgnextchannel=9e4c43db40317010VgnVCM100000dc0ca8c0RCRD&vgnextoid=4bafb863b84be210VgnVCM1000000b205a0aRCRD,"AVENIDA DOCTOR FEDERICO RUBIO Y GALI, 63",CIUDAD UNIVERSITARIA,40.45374298443811,-3.714179732136829,Parques Jardines
5995881,Parque de Fuencarral,0,http://www.madrid.es/vgn-ext-templating/v/index.jsp?vgnextchannel=9e4c43db40317010VgnVCM100000dc0ca8c0RCRD&vgnextoid=be479bd14bdbe210VgnVCM2000000c205a0aRCRD,"CALLE NUESTRA SEÑORA DE VALVERDE, 151",VALVERDE,40.50021894773631,-3.6861244200250765,Parques Jardines
5996408,Parque de Fuentechica,0,http://www.madrid.es/vgn-ext-templating/v/index.jsp?vgnextchannel=9e4c43db40317010VgnVCM100000dc0ca8c0RCRD&vgnextoid=b35ca307b6ebe210VgnVCM2000000c205a0aRCRD,"CALLE ANASTASIA LOPEZ, 21",VALVERDE,40.49571829898632,-3.6915305267345935,Parques Jardines
5996070,Parque de Fuentelarreina,0,http://www.madrid.es/vgn-ext-templating/v/index.jsp?vgnextchannel=9e4c43db40317010VgnVCM100000dc0ca8c0RCRD&vgnextoid=1ad736fa8ddbe210VgnVCM2000000c205a0aRCRD,"CALLE ROSALIA DE CASTRO, 80",PEÑA GRANDE,40.48346692636297,-3.7337736098964642,Parques Jardines
5996759,Parque de Gabriela Mistral,0,http://www.madrid.es/vgn-ext-templating/v/index.jsp?vgnextchannel=9e4c43db40317010VgnVCM100000dc0ca8c0RCRD&vgnextoid=d7d1841629ebe210VgnVCM2000000c205a0aRCRD,"CALLE ROSALIA DE CASTRO, 69",PEÑA GRANDE,40.484467522541834,-3.7336783173806616,Parques Jardines
5996421,Parque de Isabel Clara Eugenia,0,http://www.madrid.es/vgn-ext-templating/v/index.jsp?vgnextchannel=9e4c43db40317010VgnVCM100000dc0ca8c0RCRD&vgnextoid=21dfa307b6ebe210VgnVCM2000000c205a0aRCRD,"CALLE MAR CASPIO, 4",PINAR DEL REY,40.473611797871555,-3.646133317289789,Parques Jardines
5992258,Parque de Juan XXIII,0,http://www.madrid.es/vgn-ext-templating/v/index.jsp?vgnextchannel=9e4c43db40317010VgnVCM100000dc0ca8c0RCRD&vgnextoid=c3376d01014be210VgnVCM2000000c205a0aRCRD,"PASEO JUAN XXIII, 21",CIUDAD UNIVERSITARIA,40.450619984285915,-3.7136749543495617,Parques Jardines
5918577,Parque de Las Cruces,0,http://www.madrid.es/vgn-ext-templating/v/index.jsp?vgnextchannel=9e4c43db40317010VgnVCM100000dc0ca8c0RCRD&vgnextoid=37a5716cd5a7d210VgnVCM1000000b205a0aRCRD,"AVENIDA POBLADOS, 74",BUENAVISTA,40.37746689917427,-3.7547689345277977,Parques Jardines
5995455,Parque de Malmoe,0,http://www.madrid.es/vgn-ext-templating/v/index.jsp?vgnextchannel=9e4c43db40317010VgnVCM100000dc0ca8c0RCRD&vgnextoid=85c4032c2c9be210VgnVCM2000000c205a0aRCRD,"CALLE MALMOE, 2",PUEBLO NUEVO,40.41540866888321,-3.625727333816089,Parques Jardines
6003963,Parque de Manoteras,0,http://www.madrid.es/vgn-ext-templating/v/index.jsp?vgnextchannel=9e4c43db40317010VgnVCM100000dc0ca8c0RCRD&vgnextoid=8a68538aef7de210VgnVCM1000000b205a0aRCRD,"CALLE BACARES, 22",APOSTOL SANTIAGO,40.476654320025524,-3.662490150184719,Parques Jardines
5983740,Parque de Moratalaz,0,http://www.madrid.es/vgn-ext-templating/v/index.jsp?vgnextchannel=9e4c43db40317010VgnVCM100000dc0ca8c0RCRD&vgnextoid=f6719706b5f8e210VgnVCM2000000c205a0aRCRD,"AVENIDA MORATALAZ, 183",MARROQUINA,40.40882236801765,-3.643898652734279,Parques Jardines
5990633,Parque de Pan Bendito,0,http://www.madrid.es/vgn-ext-templating/v/index.jsp?vgnextchannel=9e4c43db40317010VgnVCM100000dc0ca8c0RCRD&vgnextoid=4c610dd66e4ae210VgnVCM2000000c205a0aRCRD,"AVENIDA POBLADOS, 35",LAS AGUILAS,40.38951896001857,-3.76740436374511,Parques Jardines
6000510,Parque de Peñagrande,0,http://www.madrid.es/vgn-ext-templating/v/index.jsp?vgnextchannel=9e4c43db40317010VgnVCM100000dc0ca8c0RCRD&vgnextoid=59eb6fe4d48ce210VgnVCM2000000c205a0aRCRD,"CALLE LEOPOLDO ALAS CLARIN, 53",PEÑA GRANDE,40.48185149371301,-3.732800354586844,Parques Jardines
6006849,Parque de Pinar de Barajas,0,http://www.madrid.es/vgn-ext-templating/v/index.jsp?vgnextchannel=9e4c43db40317010VgnVCM100000dc0ca8c0RCRD&vgnextoid=bc94c8a974dde210VgnVCM2000000c205a0aRCRD,"AUTOVIA A-2, 700",PIOVERA,40.44943999585466,-3.6315854281089894,Parques Jardines
5979823,Parque de Plata y Castañar,0,http://www.madrid.es/vgn-ext-templating/v/index.jsp?vgnextchannel=9e4c43db40317010VgnVCM100000dc0ca8c0RCRD&vgnextoid=31138e29b547e210VgnVCM2000000c205a0aRCRD,"GLORIETA MIRADOR DEL SUR, 1",SAN ANDRES,40.348762550258805,-3.715284870727623,Parques Jardines
5983595,Parque de Pradolongo,0,http://www.madrid.es/vgn-ext-templating/v/index.jsp?vgnextchannel=9e4c43db40317010VgnVCM100000dc0ca8c0RCRD&vgnextoid=1a174f963318e210VgnVCM1000000b205a0aRCRD,"AVENIDA RAFAELA YBARRA, 85",PRADOLONGO,40.37557617692429,-3.711963730232908,Parques Jardines
5987347,Parque de Rafael Finat,0,http://www.madrid.es/vgn-ext-templating/v/index.jsp?vgnextchannel=9e4c43db40317010VgnVCM100000dc0ca8c0RCRD&vgnextoid=d91fe18c97a9e210VgnVCM1000000b205a0aRCRD,"CALLE VIDAUBA, 4",LAS AGUILAS,40.383406554321375,-3.7639655933540093,Parques Jardines
5989658,Parque de San Isidro,0,http://www.madrid.es/vgn-ext-templating/v/index.jsp?vgnextchannel=9e4c43db40317010VgnVCM100000dc0ca8c0RCRD&vgnextoid=8c420bef1b2ae210VgnVCM1000000b205a0aRCRD,"PASEO ERMITA DEL SANTO, 74",SAN ISIDRO,40.39924815906885,-3.7284983869120603,Parques Jardines
6002086,Parque de Santa Ana,0,http://www.madrid.es/vgn-ext-templating/v/index.jsp?vgnextchannel=9e4c43db40317010VgnVCM100000dc0ca8c0RCRD&vgnextoid=07ce042c5f8ce210VgnVCM2000000c205a0aRCRD,"CALLE SAN CUGAT DEL VALLES, 4",VALVERDE,40.49738155071247,-3.6936009892949127,Parques Jardines
6004232,Parque de Villarosa,0,http://www.madrid.es/vgn-ext-templating/v/index.jsp?vgnextchannel=9e4c43db40317010VgnVCM100000dc0ca8c0RCRD&vgnextoid=66d84eb3b28de210VgnVCM1000000b205a0aRCRD,"CALLE ACONCAGUA, 2",CANILLAS,40.468674190501815,-3.631588640594873,Parques Jardines
5999142,Parque de la Alcazaba,0,http://www.madrid.es/vgn-ext-templating/v/index.jsp?vgnextchannel=9e4c43db40317010VgnVCM100000dc0ca8c0RCRD&vgnextoid=625c80aeae3ce210VgnVCM1000000b205a0aRCRD,"CALLE RIBADAVIA, 45",EL PILAR,40.47266915640937,-3.707125226601671,Parques Jardines
5995076,Parque de la Almudena,0,http://www.madrid.es/vgn-ext-templating/v/index.jsp?vgnextchannel=9e4c43db40317010VgnVCM100000dc0ca8c0RCRD&vgnextoid=079127e7679be210VgnVCM2000000c205a0aRCRD,"CALLE NICOLAS SALMERON, 4",PUEBLO NUEVO,40.42060649869604,-3.6324237307227616,Parques Jardines
5979865,Parque de la Amistad,0,http://www.madrid.es/vgn-ext-templating/v/index.jsp?vgnextchannel=9e4c43db40317010VgnVCM100000dc0ca8c0RCRD&vgnextoid=04605a943957e210VgnVCM2000000c205a0aRCRD,"CALLE SANTA PETRONILA, 21",LOS ROSALES,40.348326631620154,-3.6921658727994773,Parques Jardines
5992502,Parque de la Bombilla,0,http://www.madrid.es/vgn-ext-templating/v/index.jsp?vgnextchannel=9e4c43db40317010VgnVCM100000dc0ca8c0RCRD&vgnextoid=542b896bd24be210VgnVCM2000000c205a0aRCRD,"AVENIDA VALLADOLID, 4",CASA DE CAMPO,40.42834456035844,-3.728941931668392,Parques Jardines
6009972,Parque de la Cuesta de la Vega,0,http://www.madrid.es/vgn-ext-templating/v/index.jsp?vgnextchannel=9e4c43db40317010VgnVCM100000dc0ca8c0RCRD&vgnextoid=44ed25154c2ee210VgnVCM1000000b205a0aRCRD,"CUESTA VEGA, 1",PALACIO,40.41476219795408,-3.7154411142835397,Parques Jardines
5981460,Parque de la Dehesa Boyal,0,http://www.madrid.es/vgn-ext-templating/v/index.jsp?vgnextchannel=9e4c43db40317010VgnVCM100000dc0ca8c0RCRD&vgnextoid=bc1a24622fa7e210VgnVCM2000000c205a0aRCRD,"CALLE BURJASOT, 1, A",SAN CRISTOBAL,40.34452019989438,-3.686887364713823,Parques Jardines
5984552,Parque de la Maceta,0,http://www.madrid.es/vgn-ext-templating/v/index.jsp?vgnextchannel=9e4c43db40317010VgnVCM100000dc0ca8c0RCRD&vgnextoid=eb53e12aa509e210VgnVCM2000000c205a0aRCRD,"AVENIDA DAROCA, 301",AMBROZ,40.40838172678723,-3.6156327652234856,Parques Jardines
5989182,Parque de la Peseta,0,http://www.madrid.es/vgn-ext-templating/v/index.jsp?vgnextchannel=9e4c43db40317010VgnVCM100000dc0ca8c0RCRD&vgnextoid=7cfaa531dcf9e210VgnVCM2000000c205a0aRCRD,"CALLE SALVADOR ALLENDE, 3",BUENAVISTA,40.364341448699825,-3.757402071835875,Parques Jardines
6002643,Parque de la Supermanzana,0,http://www.madrid.es/vgn-ext-templating/v/index.jsp?vgnextchannel=9e4c43db40317010VgnVCM100000dc0ca8c0RCRD&vgnextoid=0a68e7d9139ce210VgnVCM2000000c205a0aRCRD,"CALLE SANGENJO, 27",LA PAZ,40.48531189120052,-3.7006858825216624,Parques Jardines
6003012,Parque de la Vaguada,0,http://www.madrid.es/vgn-ext-templating/v/index.jsp?vgnextchannel=9e4c43db40317010VgnVCM100000dc0ca8c0RCRD&vgnextoid=803ad376c77de210VgnVCM1000000b205a0aRCRD,"PASEO VAGUADA, 13",EL PILAR,40.48016602497203,-3.7112978051427574,Parques Jardines
5966337,Parque de la Ventilla,0,http://www.madrid.es/vgn-ext-templating/v/index.jsp?vgnextchannel=9e4c43db40317010VgnVCM100000dc0ca8c0RCRD&vgnextoid=579dad627a83e210VgnVCM1000000b205a0aRCRD,"CALLE VIA LIMITE, 51",ALMENARA,40.47342193811745,-3.6929061067371793,Parques Jardines
5986900,Parque de la Vicalvarada,0,http://www.madrid.es/vgn-ext-templating/v/index.jsp?vgnextchannel=9e4c43db40317010VgnVCM100000dc0ca8c0RCRD&vgnextoid=dcbac9728e99e210VgnVCM1000000b205a0aRCRD,"CALLE VILLABLANCA, 1",AMBROZ,40.40930182229157,-3.608605091516184,Parques Jardines
6009708,Parque de las Avenidas,0,http://www.madrid.es/vgn-ext-templating/v/index.jsp?vgnextchannel=9e4c43db40317010VgnVCM100000dc0ca8c0RCRD&vgnextoid=08ad1b44f82ee210VgnVCM1000000b205a0aRCRD,"AVENIDA BRASILIA, 6",GUINDALERA,40.44185168357492,-3.6610753472863737,Parques Jardines
5965200,Parque de las Delicias,0,http://www.madrid.es/vgn-ext-templating/v/index.jsp?vgnextchannel=9e4c43db40317010VgnVCM100000dc0ca8c0RCRD&vgnextoid=966e27668c33e210VgnVCM1000000b205a0aRCRD,"CALLE PARROCO EUSEBIO CUENCA, 13",DELICIAS,40.396280768551875,-3.6893809207693966,Parques Jardines
6005852,Parque de los Llanos,0,http://www.madrid.es/vgn-ext-templating/v/index.jsp?vgnextchannel=9e4c43db40317010VgnVCM100000dc0ca8c0RCRD&vgnextoid=ffe8e938b9cde210VgnVCM1000000b205a0aRCRD,"CALLE DIONISIO INCA YUPANQUI, 8",PIOVERA,40.461621132349094,-3.6281020785174873,Parques Jardines
5995181,Parque de los Tilos Fase I,0,http://www.madrid.es/vgn-ext-templating/v/index.jsp?vgnextchannel=9e4c43db40317010VgnVCM100000dc0ca8c0RCRD&vgnextoid=882f89d3589be210VgnVCM2000000c205a0aRCRD,"CALLE NICOLAS SALMERON, 1",PUEBLO NUEVO,40.422169759145554,-3.6348548961758254,Parques Jardines
5965331,Parque del Bronce,0,http://www.madrid.es/vgn-ext-templating/v/index.jsp?vgnextchannel=9e4c43db40317010VgnVCM100000dc0ca8c0RCRD&vgnextoid=7a2c32cd2f33e210VgnVCM1000000b205a0aRCRD,"CALLE BRONCE, 5",LEGAZPI,40.390471636161195,-3.6875778883164587,Parques Jardines
5980782,Parque del Espinillo,0,http://www.madrid.es/vgn-ext-templating/v/index.jsp?vgnextchannel=9e4c43db40317010VgnVCM100000dc0ca8c0RCRD&vgnextoid=db6da4833767e210VgnVCM2000000c205a0aRCRD,"CALLE UNANIMIDAD, 23",LOS ROSALES,40.361196526923834,-3.6853017812008,Parques Jardines
5963461,Parque del Museo del Prado,0,http://www.madrid.es/vgn-ext-templating/v/index.jsp?vgnextchannel=9e4c43db40317010VgnVCM100000dc0ca8c0RCRD&vgnextoid=3047ee4002e2e210VgnVCM2000000c205a0aRCRD,"PASEO PRADO, 11",LOS JERONIMOS,40.41374876020892,-3.6924939830736947,Parques Jardines
5998367,Parque del Norte,0,http://www.madrid.es/vgn-ext-templating/v/index.jsp?vgnextchannel=9e4c43db40317010VgnVCM100000dc0ca8c0RCRD&vgnextoid=10d3ed24a83ce210VgnVCM1000000b205a0aRCRD,"CALLE ARZOBISPO MORCILLO, 7",LA PAZ,40.48106787416528,-3.6933504628706095,Parques Jardines
5998633,Parque del Pueblo del Pardo,0,http://www.madrid.es/vgn-ext-templating/v/index.jsp?vgnextchannel=9e4c43db40317010VgnVCM100000dc0ca8c0RCRD&vgnextoid=857ccca4fb3ce210VgnVCM1000000b205a0aRCRD,"AVENIDA GUARDIA, 4",EL PARDO,40.5186002228516,-3.7753787533567573,Parques Jardines
6028368,Planta de transformación de residuos vegetales de Migas Calientes,0,http://www.madrid.es/vgn-ext-templating/v/index.jsp?vgnextchannel=9e4c43db40317010VgnVCM100000dc0ca8c0RCRD&vgnextoid=74536fd114f2f210VgnVCM1000000b205a0aRCRD,"AUTOVIA M-30, 2200",CIUDAD UNIVERSITARIA,40.445355536117184,-3.7399742609916697,Parques Jardines
7642234,Quinta de Torre Arias,0,http://www.madrid.es/vgn-ext-templating/v/index.jsp?vgnextchannel=9e4c43db40317010VgnVCM100000dc0ca8c0RCRD&vgnextoid=84c7277160d88410VgnVCM2000000c205a0aRCRD,"CALLE ALCALA, 551",EL SALVADOR,40.443385945708435,-3.6182513751654133,"Parques Jardines,  Parques Historicos"
6113673,Real Jardín Botánico,0,http://www.madrid.es/vgn-ext-templating/v/index.jsp?vgnextchannel=9e4c43db40317010VgnVCM100000dc0ca8c0RCRD&vgnextoid=e9234477786b0310VgnVCM2000000c205a0aRCRD,"PLAZA MURILLO, 2",LOS JERONIMOS,40.41238214985831,-3.692032097926277,Monumentos Edificios Artisticos
10037726,Real Jardín Botánico Alfonso XIII,0,http://www.madrid.es/vgn-ext-templating/v/index.jsp?vgnextchannel=9e4c43db40317010VgnVCM100000dc0ca8c0RCRD&vgnextoid=66230cbe1f404510VgnVCM1000001d4a900aRCRD,"AVENIDA COMPLUTENSE, 12",CIUDAD UNIVERSITARIA,40.44791328517757,-3.7273254973242542,Parques Jardines
6028228,Vivero Estufas del Retiro,0,http://www.madrid.es/vgn-ext-templating/v/index.jsp?vgnextchannel=9e4c43db40317010VgnVCM100000dc0ca8c0RCRD&vgnextoid=00be21c051f2f210VgnVCM2000000c205a0aRCRD,"GLORIETA ANGEL CAIDO, 4",LOS JERONIMOS,40.409899256936335,-3.6823305487957123,Parques Jardines
6028009,Vivero de la Casa de Campo,0,http://www.madrid.es/vgn-ext-templating/v/index.jsp?vgnextchannel=9e4c43db40317010VgnVCM100000dc0ca8c0RCRD&vgnextoid=735fc1076ce2f210VgnVCM2000000c205a0aRCRD,"PASEO AZUL, 2",CASA DE CAMPO,40.41984158690351,-3.7286969080235455,Parques Jardines
6126515,Zona verde C/ Fresnedillas,0,http://www.madrid.es/vgn-ext-templating/v/index.jsp?vgnextchannel=9e4c43db40317010VgnVCM100000dc0ca8c0RCRD&vgnextoid=f14f301932811310VgnVCM1000000b205a0aRCRD,"CALLE FRESNEDILLAS, 1",FUENTELARREINA,40.477263871475174,-3.7430025162285188,Parques Jardines
