identificador,titulo,accesible,url,direccion,BARRIO,lat,lng,tipo
7497459,OAC. Policía Municipal. Unidad Integral de Distrito Arganzuela,0,http://www.madrid.es/vgn-ext-templating/v/index.jsp?vgnextchannel=9e4c43db40317010VgnVCM100000dc0ca8c0RCRD&vgnextoid=6a8b1a9ba8736410VgnVCM1000000b205a0aRCRD,"PASEO CHOPERA, 2",CHOPERA,40.39612047546934,-3.702541299775232,Oficinas Policia Municipal
6322839,OAC. Policía Municipal. Unidad Integral de Distrito Fuencarral - El Pardo,0,http://www.madrid.es/vgn-ext-templating/v/index.jsp?vgnextchannel=9e4c43db40317010VgnVCM100000dc0ca8c0RCRD&vgnextoid=fc30de294e585310VgnVCM2000000c205a0aRCRD,"AVENIDA SOTO PALACIOS, 2",VALVERDE,40.48799779953855,-3.6839350432489524,Oficinas Policia Municipal
6913389,OAC. Policía Municipal. Unidad Integral de Distrito Barajas,0,http://www.madrid.es/vgn-ext-templating/v/index.jsp?vgnextchannel=9e4c43db40317010VgnVCM100000dc0ca8c0RCRD&vgnextoid=dfb54fd0f603e310VgnVCM1000000b205a0aRCRD,"CALLE TRESPADERNE, 16",AEROPUERTO,40.45259668427249,-3.5811044713320173,Oficinas Policia Municipal
6322837,OAC. Policía Municipal. Unidad Integral de Distrito Carabanchel,1,http://www.madrid.es/vgn-ext-templating/v/index.jsp?vgnextchannel=9e4c43db40317010VgnVCM100000dc0ca8c0RCRD&vgnextoid=f3bfde294e585310VgnVCM2000000c205a0aRCRD,"CALLE ALBOX, 8",PUERTA BONITA,40.37447757037338,-3.7447818443986804,Oficinas Policia Municipal
6322846,OAC. Policía Municipal. Unidad Integral de Distrito Centro - Norte,1,http://www.madrid.es/vgn-ext-templating/v/index.jsp?vgnextchannel=9e4c43db40317010VgnVCM100000dc0ca8c0RCRD&vgnextoid=7fe1de294e585310VgnVCM2000000c205a0aRCRD,"PLAZA SANTA MARIA SOLEDAD TORRES ACOSTA, 2",UNIVERSIDAD,40.4214535549175,-3.705563118253955,Oficinas Policia Municipal
6322861,OAC. Policía Municipal. Unidad Integral de Distrito Centro - Sur,1,http://www.madrid.es/vgn-ext-templating/v/index.jsp?vgnextchannel=9e4c43db40317010VgnVCM100000dc0ca8c0RCRD&vgnextoid=55b5de294e585310VgnVCM2000000c205a0aRCRD,"CALLE MONTERA, 16",SOL,40.41782271283005,-3.7026373363773,Oficinas Policia Municipal
6322843,OAC. Policía Municipal. Unidad Integral de Distrito Chamartín,1,http://www.madrid.es/vgn-ext-templating/v/index.jsp?vgnextchannel=9e4c43db40317010VgnVCM100000dc0ca8c0RCRD&vgnextoid=4a51de294e585310VgnVCM2000000c205a0aRCRD,"CALLE PRINCIPE DE VERGARA, 142",CIUDAD JARDIN,40.44489723228663,-3.6780972922453685,Oficinas Policia Municipal
6322855,OAC. Policía Municipal. Unidad Integral de Distrito Chamberí,1,http://www.madrid.es/vgn-ext-templating/v/index.jsp?vgnextchannel=9e4c43db40317010VgnVCM100000dc0ca8c0RCRD&vgnextoid=a814de294e585310VgnVCM2000000c205a0aRCRD,"CALLE RAIMUNDO FERNANDEZ VILLAVERDE, 8",RIOS ROSAS,40.44658783768792,-3.7027481328112994,Oficinas Policia Municipal
6322838,OAC. Policía Municipal. Unidad Integral de Distrito Ciudad Lineal,1,http://www.madrid.es/vgn-ext-templating/v/index.jsp?vgnextchannel=9e4c43db40317010VgnVCM100000dc0ca8c0RCRD&vgnextoid=f8ffde294e585310VgnVCM2000000c205a0aRCRD,"CALLE JOSE ARCONES GIL, 17",PUEBLO NUEVO,40.43463675619067,-3.6384030576589517,Oficinas Policia Municipal
6322850,OAC. Policía Municipal. Unidad Integral de Distrito Hortaleza,1,http://www.madrid.es/vgn-ext-templating/v/index.jsp?vgnextchannel=9e4c43db40317010VgnVCM100000dc0ca8c0RCRD&vgnextoid=93d2de294e585310VgnVCM2000000c205a0aRCRD,"CALLE AREQUIPA, 2",CANILLAS,40.46893210570389,-3.642007014477437,Oficinas Policia Municipal
6322854,OAC. Policía Municipal. Unidad Integral de Distrito Latina,0,http://www.madrid.es/vgn-ext-templating/v/index.jsp?vgnextchannel=9e4c43db40317010VgnVCM100000dc0ca8c0RCRD&vgnextoid=f3d3de294e585310VgnVCM2000000c205a0aRCRD,"CALLE RODRIGO DE ARANA, 50",LAS AGUILAS,40.3796366471018,-3.7659492448759053,Oficinas Policia Municipal
6322857,OAC. Policía Municipal. Unidad Integral de Distrito Moncloa-Aravaca,0,http://www.madrid.es/vgn-ext-templating/v/index.jsp?vgnextchannel=9e4c43db40317010VgnVCM100000dc0ca8c0RCRD&vgnextoid=28a4de294e585310VgnVCM2000000c205a0aRCRD,"CALLE FRANCISCO Y JACINTO ALCANTARA, 2",CASA DE CAMPO,40.42670719570918,-3.7242795119747836,Oficinas Policia Municipal
6322860,OAC. Policía Municipal. Unidad Integral de Distrito Moratalaz,1,http://www.madrid.es/vgn-ext-templating/v/index.jsp?vgnextchannel=9e4c43db40317010VgnVCM100000dc0ca8c0RCRD&vgnextoid=d575de294e585310VgnVCM2000000c205a0aRCRD,"CALLE FUENTE CARRANTONA, 6",PAVONES,40.398410303499055,-3.6369530687522795,Oficinas Policia Municipal
6322851,OAC. Policía Municipal. Unidad Integral de Distrito Puente de Vallecas,0,http://www.madrid.es/vgn-ext-templating/v/index.jsp?vgnextchannel=9e4c43db40317010VgnVCM100000dc0ca8c0RCRD&vgnextoid=8523de294e585310VgnVCM2000000c205a0aRCRD,"CALLE PUERTO DE CARDOSO, 7",PALOMERAS BAJAS,40.38768530645969,-3.653841535049231,Oficinas Policia Municipal
6322848,OAC. Policía Municipal. Unidad Integral de Distrito Retiro,0,http://www.madrid.es/vgn-ext-templating/v/index.jsp?vgnextchannel=9e4c43db40317010VgnVCM100000dc0ca8c0RCRD&vgnextoid=1f32de294e585310VgnVCM2000000c205a0aRCRD,"CALLE COCHERAS, 5",PACIFICO,40.39984176364749,-3.6767729958448934,Oficinas Policia Municipal
6322859,OAC. Policía Municipal. Unidad Integral de Distrito Salamanca,0,http://www.madrid.es/vgn-ext-templating/v/index.jsp?vgnextchannel=9e4c43db40317010VgnVCM100000dc0ca8c0RCRD&vgnextoid=7335de294e585310VgnVCM2000000c205a0aRCRD,"CALLE PEDRO HEREDIA, 34",FUENTE DEL BERRO,40.43012356817602,-3.6623634166822514,Oficinas Policia Municipal
6322852,OAC. Policía Municipal. Unidad Integral de Distrito San Blas-Canillejas,1,http://www.madrid.es/vgn-ext-templating/v/index.jsp?vgnextchannel=9e4c43db40317010VgnVCM100000dc0ca8c0RCRD&vgnextoid=1e63de294e585310VgnVCM2000000c205a0aRCRD,"CALLE ESTOCOLMO, 91",ROSAS,40.43386257026589,-3.6047825149612094,Oficinas Policia Municipal
6322840,OAC. Policía Municipal. Unidad Integral de Distrito Tetuán,0,http://www.madrid.es/vgn-ext-templating/v/index.jsp?vgnextchannel=9e4c43db40317010VgnVCM100000dc0ca8c0RCRD&vgnextoid=d280de294e585310VgnVCM2000000c205a0aRCRD,"AVENIDA ASTURIAS, 68",ALMENARA,40.47244698732512,-3.699219112932764,Oficinas Policia Municipal
6322836,OAC. Policía Municipal. Unidad Integral de Distrito Usera,0,http://www.madrid.es/vgn-ext-templating/v/index.jsp?vgnextchannel=9e4c43db40317010VgnVCM100000dc0ca8c0RCRD&vgnextoid=7e5fde294e585310VgnVCM2000000c205a0aRCRD,"CALLE DOCTOR TOLOSA LATOUR, 16",PRADOLONGO,40.374457614717656,-3.7033646424165747,Oficinas Policia Municipal
6322849,OAC. Policía Municipal. Unidad Integral de Distrito Vicálvaro,1,http://www.madrid.es/vgn-ext-templating/v/index.jsp?vgnextchannel=9e4c43db40317010VgnVCM100000dc0ca8c0RCRD&vgnextoid=3e72de294e585310VgnVCM2000000c205a0aRCRD,"PASEO POLIDEPORTIVO, 138",AMBROZ,40.40663654691994,-3.59797437686375,Oficinas Policia Municipal
6322844,OAC. Policía Municipal. Unidad Integral de Distrito Villa de Vallecas,1,http://www.madrid.es/vgn-ext-templating/v/index.jsp?vgnextchannel=9e4c43db40317010VgnVCM100000dc0ca8c0RCRD&vgnextoid=80a1de294e585310VgnVCM2000000c205a0aRCRD,"CALLE REAL DE ARGANDA, 64",CASCO H.VALLECAS,40.379145542145515,-3.6142474191270058,Oficinas Policia Municipal
6322856,OAC. Policía Municipal. Unidad Integral de Distrito Villaverde,1,http://www.madrid.es/vgn-ext-templating/v/index.jsp?vgnextchannel=9e4c43db40317010VgnVCM100000dc0ca8c0RCRD&vgnextoid=c364de294e585310VgnVCM2000000c205a0aRCRD,"CARRETERA CARABANCHEL A VILLAVERDE, 105",SAN ANDRES,40.351183634231326,-3.706879172113004,Oficinas Policia Municipal
